{
	"regions": [
		{
			"lat": 39.8283,
			"lng": -98.5795,
			"radius": 25,
			"name": "United States",
			"continent": "North America",
			"type": "country"
		},
		{
			"lat": 36.7783,
			"lng": -119.4179,
			"radius": 8,
			"name": "California, USA",
			"continent": "North America",
			"type": "state"
		},
		{
			"lat": 31.9686,
			"lng": -99.9018,
			"radius": 10,
			"name": "Texas, USA",
			"continent": "North America",
			"type": "state"
		},
		{
			"lat": 42.9134,
			"lng": -75.5960,
			"radius": 6,
			"name": "New York State, USA",
			"continent": "North America",
			"type": "state"
		},
		{
			"lat": 27.7663,
			"lng": -82.6404,
			"radius": 6,
			"name": "Florida, USA",
			"continent": "North America",
			"type": "state"
		},
		{
			"lat": 56.1304,
			"lng": -106.3468,
			"radius": 20,
			"name": "Canada",
			"continent": "North America",
			"type": "country"
		},
		{
			"lat": 51.0447,
			"lng": -114.0719,
			"radius": 8,
			"name": "Alberta, Canada",
			"continent": "North America",
			"type": "state"
		},
		{
			"lat": 49.2827,
			"lng": -123.1207,
			"radius": 6,
			"name": "British Columbia, Canada",
			"continent": "North America",
			"type": "state"
		},
		{
			"lat": 45.5017,
			"lng": -73.5673,
			"radius": 6,
			"name": "Quebec, Canada",
			"continent": "North America",
			"type": "state"
		},
		{
			"lat": 23.6345,
			"lng": -102.5528,
			"radius": 15,
			"name": "Mexico",
			"continent": "North America",
			"type": "country"
		},
		{
			"lat": 55.3781,
			"lng": -3.4360,
			"radius": 8,
			"name": "United Kingdom",
			"continent": "Europe",
			"type": "country"
		},
		{
			"lat": 51.5074,
			"lng": -0.1278,
			"radius": 3,
			"name": "England, UK",
			"continent": "Europe",
			"type": "region"
		},
		{
			"lat": 56.4907,
			"lng": -4.2026,
			"radius": 4,
			"name": "Scotland, UK",
			"continent": "Europe",
			"type": "region"
		},
		{
			"lat": 51.1657,
			"lng": 10.4515,
			"radius": 8,
			"name": "Germany",
			"continent": "Europe",
			"type": "country"
		},
		{
			"lat": 46.2276,
			"lng": 2.2137,
			"radius": 8,
			"name": "France",
			"continent": "Europe",
			"type": "country"
		},
		{
			"lat": 40.4637,
			"lng": -3.7492,
			"radius": 8,
			"name": "Spain",
			"continent": "Europe",
			"type": "country"
		},
		{
			"lat": 41.8719,
			"lng": 12.5674,
			"radius": 8,
			"name": "Italy",
			"continent": "Europe",
			"type": "country"
		},
		{
			"lat": 52.1326,
			"lng": 5.2913,
			"radius": 3,
			"name": "Netherlands",
			"continent": "Europe",
			"type": "country"
		},
		{
			"lat": 60.1282,
			"lng": 18.6435,
			"radius": 10,
			"name": "Sweden",
			"continent": "Europe",
			"type": "country"
		},
		{
			"lat": 60.4720,
			"lng": 8.4689,
			"radius": 10,
			"name": "Norway",
			"continent": "Europe",
			"type": "country"
		},
		{
			"lat": 56.2639,
			"lng": 9.5018,
			"radius": 4,
			"name": "Denmark",
			"continent": "Europe",
			"type": "country"
		},
		{
			"lat": 50.5039,
			"lng": 4.4699,
			"radius": 2,
			"name": "Belgium",
			"continent": "Europe",
			"type": "country"
		},
		{
			"lat": 46.8182,
			"lng": 8.2275,
			"radius": 3,
			"name": "Switzerland",
			"continent": "Europe",
			"type": "country"
		},
		{
			"lat": 47.5162,
			"lng": 14.5501,
			"radius": 4,
			"name": "Austria",
			"continent": "Europe",
			"type": "country"
		},
		{
			"lat": 52.2297,
			"lng": 21.0122,
			"radius": 8,
			"name": "Poland",
			"continent": "Europe",
			"type": "country"
		},
		{
			"lat": 49.8175,
			"lng": 15.4730,
			"radius": 4,
			"name": "Czech Republic",
			"continent": "Europe",
			"type": "country"
		},
		{
			"lat": 61.9241,
			"lng": 25.7482,
			"radius": 8,
			"name": "Finland",
			"continent": "Europe",
			"type": "country"
		},
		{
			"lat": 38.7223,
			"lng": -9.1393,
			"radius": 4,
			"name": "Portugal",
			"continent": "Europe",
			"type": "country"
		},
		{
			"lat": 39.0742,
			"lng": 21.8243,
			"radius": 6,
			"name": "Greece",
			"continent": "Europe",
			"type": "country"
		},
		{
			"lat": 45.9432,
			"lng": 24.9668,
			"radius": 6,
			"name": "Romania",
			"continent": "Europe",
			"type": "country"
		},
		{
			"lat": 36.2048,
			"lng": 138.2529,
			"radius": 10,
			"name": "Japan",
			"continent": "Asia",
			"type": "country"
		},
		{
			"lat": 35.6762,
			"lng": 139.6503,
			"radius": 2,
			"name": "Tokyo Region, Japan",
			"continent": "Asia",
			"type": "region"
		},
		{
			"lat": 34.6937,
			"lng": 135.5023,
			"radius": 2,
			"name": "Kansai Region, Japan",
			"continent": "Asia",
			"type": "region"
		},
		{
			"lat": 39.0000,
			"lng": 140.7500,
			"radius": 5,
			"name": "Tohoku Region, Japan",
			"continent": "Asia",
			"type": "region"
		},
		{
			"lat": 35.8000,
			"lng": 137.9000,
			"radius": 5,
			"name": "Chubu Region, Japan",
			"continent": "Asia",
			"type": "region"
		},
		{
			"lat": 32.8000,
			"lng": 130.8000,
			"radius": 6,
			"name": "Kyushu Region, Japan",
			"continent": "Asia",
			"type": "region"
		},
		{
			"lat": 43.0642,
			"lng": 141.3469,
			"radius": 3,
			"name": "Hokkaido, Japan",
			"continent": "Asia",
			"type": "region"
		},
		{
			"lat": 35.8617,
			"lng": 104.1954,
			"radius": 25,
			"name": "China",
			"continent": "Asia",
			"type": "country"
		},
		{
			"lat": 35.9078,
			"lng": 127.7669,
			"radius": 6,
			"name": "South Korea",
			"continent": "Asia",
			"type": "country"
		},
		{
			"lat": 20.5937,
			"lng": 78.9629,
			"radius": 20,
			"name": "India",
			"continent": "Asia",
			"type": "country"
		},
		{
			"lat": 13.7563,
			"lng": 100.5018,
			"radius": 10,
			"name": "Thailand",
			"continent": "Asia",
			"type": "country"
		},
		{
			"lat": 14.0583,
			"lng": 108.2772,
			"radius": 10,
			"name": "Vietnam",
			"continent": "Asia",
			"type": "country"
		},
		{
			"lat": 3.1390,
			"lng": 101.6869,
			"radius": 8,
			"name": "Malaysia",
			"continent": "Asia",
			"type": "country"
		},
		{
			"lat": -0.7893,
			"lng": 113.9213,
			"radius": 15,
			"name": "Indonesia",
			"continent": "Asia",
			"type": "country"
		},
		{
			"lat": 14.5995,
			"lng": 120.9842,
			"radius": 10,
			"name": "Philippines",
			"continent": "Asia",
			"type": "country"
		},
		{
			"lat": 23.6978,
			"lng": 120.9605,
			"radius": 3,
			"name": "Taiwan",
			"continent": "Asia",
			"type": "country"
		},
		{
			"lat": 1.3521,
			"lng": 103.8198,
			"radius": 1,
			"name": "Singapore",
			"continent": "Asia",
			"type": "country"
		},
		{
			"lat": 22.3193,
			"lng": 114.1694,
			"radius": 1,
			"name": "Hong Kong",
			"continent": "Asia",
			"type": "region"
		},
		{
			"lat": 31.0461,
			"lng": 34.8516,
			"radius": 3,
			"name": "Israel",
			"continent": "Asia",
			"type": "country"
		},
		{
			"lat": 38.9637,
			"lng": 35.2433,
			"radius": 10,
			"name": "Turkey",
			"continent": "Asia",
			"type": "country"
		},
		{
			"lat": -25.2744,
			"lng": 133.7751,
			"radius": 20,
			"name": "Australia",
			"continent": "Oceania",
			"type": "country"
		},
		{
			"lat": -33.8688,
			"lng": 151.2093,
			"radius": 4,
			"name": "New South Wales, Australia",
			"continent": "Oceania",
			"type": "state"
		},
		{
			"lat": -37.8136,
			"lng": 144.9631,
			"radius": 4,
			"name": "Victoria, Australia",
			"continent": "Oceania",
			"type": "state"
		},
		{
			"lat": -27.4698,
			"lng": 153.0251,
			"radius": 6,
			"name": "Queensland, Australia",
			"continent": "Oceania",
			"type": "state"
		},
		{
			"lat": -40.9006,
			"lng": 174.8860,
			"radius": 6,
			"name": "New Zealand",
			"continent": "Oceania",
			"type": "country"
		},
		{
			"lat": -14.2350,
			"lng": -51.9253,
			"radius": 20,
			"name": "Brazil",
			"continent": "South America",
			"type": "country"
		},
		{
			"lat": -38.4161,
			"lng": -63.6167,
			"radius": 15,
			"name": "Argentina",
			"continent": "South America",
			"type": "country"
		},
		{
			"lat": -35.6751,
			"lng": -71.5430,
			"radius": 12,
			"name": "Chile",
			"continent": "South America",
			"type": "country"
		},
		{
			"lat": 4.5709,
			"lng": -74.2973,
			"radius": 10,
			"name": "Colombia",
			"continent": "South America",
			"type": "country"
		},
		{
			"lat": -9.1900,
			"lng": -75.0152,
			"radius": 10,
			"name": "Peru",
			"continent": "South America",
			"type": "country"
		},
		{
			"lat": -32.5228,
			"lng": -55.7658,
			"radius": 4,
			"name": "Uruguay",
			"continent": "South America",
			"type": "country"
		},
		{
			"lat": -1.8312,
			"lng": -78.1834,
			"radius": 6,
			"name": "Ecuador",
			"continent": "South America",
			"type": "country"
		},
		{
			"lat": -30.5595,
			"lng": 22.9375,
			"radius": 10,
			"name": "South Africa",
			"continent": "Africa",
			"type": "country"
		},
		{
			"lat": 26.0000,
			"lng": 30.0000,
			"radius": 10,
			"name": "Egypt",
			"continent": "Africa",
			"type": "country"
		},
		{
			"lat": 31.7917,
			"lng": -7.0926,
			"radius": 8,
			"name": "Morocco",
			"continent": "Africa",
			"type": "country"
		},
		{
			"lat": 33.8869,
			"lng": 9.5375,
			"radius": 4,
			"name": "Tunisia",
			"continent": "Africa",
			"type": "country"
		},
		{
			"lat": -0.0236,
			"lng": 37.9062,
			"radius": 8,
			"name": "Kenya",
			"continent": "Africa",
			"type": "country"
		},
		{
			"lat": 9.0820,
			"lng": 8.6753,
			"radius": 10,
			"name": "Nigeria",
			"continent": "Africa",
			"type": "country"
		},
		{
			"lat": 40.000000,
			"lng": -89.000000,
			"radius": 8,
			"name": "Illinois, USA",
			"continent": "North America",
			"type": "state"
		},
		{
			"lat": 40.730610,
			"lng": -73.935242,
			"radius": 2,
			"name": "New York City, USA",
			"continent": "North America",
			"type": "region"
		},
		{
			"lat": 51.25377500,
			"lng": -85.32321400,
			"radius": 8,
			"name": "Ontario, Canada",
			"continent": "North America",
			"type": "state"
		},
		{
			"lat": 9.748916999999999,
			"lng": -83.75342799999999,
			"radius": 6,
			"name": "Costa Rica",
			"continent": "North America",
			"type": "country"
		},
		{
			"lat": 53.41291,
			"lng": -8.24389,
			"radius": 4,
			"name": "Ireland",
			"continent": "Europe",
			"type": "country"
		},
		{
			"lat": 56.0,
			"lng": 40.0,
			"radius": 15,
			"name": "European Russia",
			"continent": "Europe",
			"type": "region"
		},
		{
			"lat": 48.3830,
			"lng": 31.1829,
			"radius": 10,
			"name": "Ukraine",
			"continent": "Europe",
			"type": "country"
		},
		{
			"lat": 50.0755381,
			"lng": 14.4378005,
			"radius": 1,
			"name": "Prague, Czech Republic",
			"continent": "Europe",
			"type": "region"
		},
		{
			"lat": 41.38879000,
			"lng": 2.15899000,
			"radius": 1,
			"name": "Barcelona, Spain",
			"continent": "Europe",
			"type": "region"
		},
		{
			"lat": 24.0000,
			"lng": 54.0000,
			"radius": 3,
			"name": "United Arab Emirates",
			"continent": "Asia",
			"type": "country"
		},
		{
			"lat": 30.3894,
			"lng": 69.3532,
			"radius": 10,
			"name": "Pakistan",
			"continent": "Asia",
			"type": "country"
		},
		{
			"lat": 48.0053,
			"lng": 66.9045,
			"radius": 15,
			"name": "Kazakhstan",
			"continent": "Asia",
			"type": "country"
		},
		{
			"lat": 31.2333,
			"lng": 121.4667,
			"radius": 2,
			"name": "Shanghai, China",
			"continent": "Asia",
			"type": "region"
		},
		{
			"lat": 37.566,
			"lng": 126.9784,
			"radius": 1,
			"name": "Seoul, South Korea",
			"continent": "Asia",
			"type": "region"
		},
		{
			"lat": -26.0000,
			"lng": 121.0000,
			"radius": 10,
			"name": "Western Australia, Australia",
			"continent": "Oceania",
			"type": "state"
		},
		{
			"lat": -17.713371,
			"lng": 178.065033,
			"radius": 4,
			"name": "Fiji",
			"continent": "Oceania",
			"type": "country"
		},
		{
			"lat": 6.42375,
			"lng": -66.58973,
			"radius": 10,
			"name": "Venezuela",
			"continent": "South America",
			"type": "country"
		},
		{
			"lat": 7.9528,
			"lng": -1.0307,
			"radius": 8,
			"name": "Ghana",
			"continent": "Africa",
			"type": "country"
		},
		{
			"lat": -33.22779180,
			"lng": 21.85685860,
			"radius": 4,
			"name": "Western Cape, South Africa",
			"continent": "Africa",
			"type": "region"
		}
	]
}
